City_ID,City,Lat,Lng,Max Temp,Humidity,Cloudiness,Wind Speed,Country,Date
0,uturoa,-16.7333,-151.4333,79.43,77,100,19.01,PF,Tue Oct 17 14:15:30 2023
1,xingcheng,40.6167,120.7167,63.03,74,100,10.22,CN,Tue Oct 17 14:15:30 2023
2,tubarjal,30.4999,38.216,74.3,35,0,8.95,SA,Tue Oct 17 14:15:31 2023
3,invercargill,-46.4,168.35,45.01,81,100,4.0,NZ,Tue Oct 17 14:15:31 2023
4,as saffaniyah,27.9708,48.73,77.94,49,0,3.15,SA,Tue Oct 17 14:15:31 2023
5,antsiranana,-12.2787,49.2917,75.63,83,11,11.45,MG,Tue Oct 17 14:15:31 2023
6,pathein,16.7833,94.7333,75.94,91,92,2.98,MM,Tue Oct 17 14:15:31 2023
7,fort bragg,35.139,-79.006,71.82,47,17,5.01,US,Tue Oct 17 14:15:31 2023
8,namtsy,62.7161,129.6658,25.03,49,100,5.35,RU,Tue Oct 17 14:15:31 2023
9,port-aux-francais,-49.35,70.2167,35.91,74,95,18.7,TF,Tue Oct 17 14:15:31 2023
10,margaret river,-33.95,115.0667,59.54,84,100,10.0,AU,Tue Oct 17 14:15:31 2023
11,east london,-33.0153,27.9116,62.92,80,0,14.18,ZA,Tue Oct 17 14:15:32 2023
12,bethel,41.3712,-73.414,62.65,62,75,4.61,US,Tue Oct 17 14:12:04 2023
13,blackmans bay,-43.0167,147.3167,44.53,87,16,1.01,AU,Tue Oct 17 14:15:32 2023
14,edinburgh of the seven seas,-37.0676,-12.3116,54.66,75,100,10.98,SH,Tue Oct 17 14:15:32 2023
15,whistler,50.1164,-122.9695,45.72,93,100,0.0,CA,Tue Oct 17 14:11:20 2023
16,port alfred,-33.5906,26.891,63.18,88,0,3.0,ZA,Tue Oct 17 14:15:32 2023
17,yellowknife,62.456,-114.3525,34.32,100,100,2.3,CA,Tue Oct 17 14:12:30 2023
18,ribeira grande,38.5167,-28.7,70.77,88,75,13.8,PT,Tue Oct 17 14:15:32 2023
19,bethanie,-26.4833,17.15,78.1,13,0,6.13,NA,Tue Oct 17 14:15:32 2023
20,tionk essil,12.7856,-16.5217,84.16,75,0,8.52,SN,Tue Oct 17 14:15:32 2023
21,grytviken,-54.2811,-36.5092,36.12,81,86,10.96,GS,Tue Oct 17 14:15:33 2023
22,arkhangel'sk,64.5401,40.5433,39.13,78,100,8.3,RU,Tue Oct 17 14:13:14 2023
23,priozersk,61.0393,30.1291,44.11,86,100,11.81,RU,Tue Oct 17 14:15:33 2023
24,tazovsky,67.4667,78.7,38.62,95,100,12.62,RU,Tue Oct 17 14:15:33 2023
25,santander jimenez,24.2167,-98.4667,79.83,23,57,4.0,MX,Tue Oct 17 14:15:33 2023
26,tiksi,71.6872,128.8694,3.34,100,100,1.79,RU,Tue Oct 17 14:15:33 2023
27,waitangi,-43.9535,-176.5597,49.82,84,0,1.99,NZ,Tue Oct 17 14:15:33 2023
28,nuuk,64.1835,-51.7216,25.41,50,20,18.41,GL,Tue Oct 17 14:15:33 2023
29,ankazobe,-18.3167,47.1167,68.81,71,87,0.98,MG,Tue Oct 17 14:15:34 2023
30,happy valley-goose bay,53.3168,-60.3315,43.11,61,75,8.05,CA,Tue Oct 17 14:15:34 2023
31,tazacorte,28.629,-17.9293,76.17,82,20,5.01,ES,Tue Oct 17 14:15:34 2023
32,tocopilla,-22.092,-70.1979,62.92,74,15,9.04,CL,Tue Oct 17 14:15:34 2023
33,azzaba,36.7394,7.1053,77.23,26,16,4.03,DZ,Tue Oct 17 14:15:34 2023
34,stanley,54.868,-1.6985,47.28,94,20,4.61,GB,Tue Oct 17 14:15:34 2023
35,yerofey pavlovich,53.9667,121.9667,29.17,99,97,0.63,RU,Tue Oct 17 14:15:34 2023
36,college,64.8569,-147.8028,35.08,85,75,1.99,US,Tue Oct 17 14:15:34 2023
37,jose maria morelos,23.3952,-103.8984,69.49,32,66,7.2,MX,Tue Oct 17 14:15:34 2023
38,iqaluit,63.7506,-68.5145,29.93,54,100,6.91,CA,Tue Oct 17 14:15:35 2023
39,priargunsk,50.3691,119.1012,35.98,59,69,13.85,RU,Tue Oct 17 14:15:35 2023
40,anadyr,64.75,177.4833,21.7,100,40,11.18,RU,Tue Oct 17 14:15:35 2023
41,missoula,47.0166,-113.8009,52.2,36,10,14.41,US,Tue Oct 17 14:15:30 2023
42,afaahiti,-17.75,-149.2833,80.47,81,93,18.54,PF,Tue Oct 17 14:13:57 2023
43,nadi,-17.8,177.4167,75.2,78,40,0.0,FJ,Tue Oct 17 14:15:35 2023
44,iskateley,67.6803,53.1512,34.02,89,100,8.99,RU,Tue Oct 17 14:15:35 2023
45,puerto baquerizo moreno,-0.9,-89.6,83.39,70,40,6.91,EC,Tue Oct 17 14:15:35 2023
46,ushuaia,-54.8,-68.3,56.86,65,0,11.5,AR,Tue Oct 17 14:15:36 2023
47,praia da vitoria,38.7333,-27.0667,71.85,73,20,8.68,PT,Tue Oct 17 14:15:36 2023
48,rio preto da eva,-2.6994,-59.6997,89.78,53,63,10.67,BR,Tue Oct 17 14:15:36 2023
49,kayangel,8.0823,134.7173,82.17,77,11,4.99,PW,Tue Oct 17 14:15:36 2023
50,ulsteinvik,62.3432,5.8487,48.76,91,100,1.99,NO,Tue Oct 17 14:15:36 2023
51,kuanda,56.3161,116.0806,25.68,87,26,3.87,RU,Tue Oct 17 14:15:36 2023
52,tralee,52.2704,-9.7026,52.93,89,100,26.98,IE,Tue Oct 17 14:15:36 2023
53,mili,6.0815,171.735,82.8,71,24,3.87,MH,Tue Oct 17 14:15:37 2023
54,adamstown,-25.066,-130.1015,71.74,88,100,9.08,PN,Tue Oct 17 14:15:37 2023
55,inongo,-1.95,18.2667,73.78,93,89,5.32,CD,Tue Oct 17 14:15:37 2023
56,castlegar,49.2998,-117.6689,60.98,56,22,3.0,CA,Tue Oct 17 14:15:37 2023
57,garissa,-0.4536,39.6401,84.74,59,82,19.57,KE,Tue Oct 17 14:15:37 2023
58,semporna,4.4818,118.6112,76.68,92,16,1.79,MY,Tue Oct 17 14:15:37 2023
59,pacific grove,36.6177,-121.9166,81.39,71,0,5.75,US,Tue Oct 17 14:15:37 2023
60,minas novas,-17.2186,-42.5903,94.26,21,58,8.34,BR,Tue Oct 17 14:15:37 2023
61,nemuro,43.3236,145.575,54.19,70,93,24.58,JP,Tue Oct 17 14:15:37 2023
62,albany,42.6001,-73.9662,59.95,65,93,1.01,US,Tue Oct 17 14:11:00 2023
63,puerto ayora,-0.7393,-90.3518,89.56,87,77,5.99,EC,Tue Oct 17 14:15:38 2023
64,kulhudhuffushi,6.6221,73.07,83.12,72,92,7.87,MV,Tue Oct 17 14:15:38 2023
65,georgetown,5.4112,100.3354,79.02,91,20,4.61,MY,Tue Oct 17 14:15:11 2023
66,riberalta,-10.9833,-66.1,93.4,52,75,0.0,BO,Tue Oct 17 14:15:38 2023
67,badger,64.8,-147.5333,34.99,85,75,0.0,US,Tue Oct 17 14:15:38 2023
68,west island,-12.1568,96.8225,78.78,89,75,14.97,CC,Tue Oct 17 14:15:38 2023
69,bredasdorp,-34.5322,20.0403,61.65,83,0,2.66,ZA,Tue Oct 17 14:15:38 2023
70,ulaangom,49.9811,92.0667,40.57,33,15,1.57,MN,Tue Oct 17 14:15:39 2023
71,port moresby,-9.4431,147.1797,73.81,96,100,2.3,PG,Tue Oct 17 14:15:39 2023
72,mount isa,-20.7333,139.5,71.37,20,6,11.5,AU,Tue Oct 17 14:15:39 2023
73,west end,26.6833,-78.9667,75.18,59,26,13.13,BS,Tue Oct 17 14:15:39 2023
74,korla,41.7597,86.1469,50.02,29,0,4.36,CN,Tue Oct 17 14:15:39 2023
75,cayenne,4.9333,-52.3333,87.84,70,75,12.66,GF,Tue Oct 17 14:15:39 2023
76,burdur,37.7203,30.2908,61.5,63,75,2.3,TR,Tue Oct 17 14:15:39 2023
77,chipinge,-20.1883,32.6236,61.7,92,100,5.66,ZW,Tue Oct 17 14:15:40 2023
78,ancud,-41.8697,-73.8203,50.56,87,0,18.99,CL,Tue Oct 17 14:15:40 2023
79,jiangyou,31.7667,104.7167,65.57,97,100,1.81,CN,Tue Oct 17 14:15:40 2023
80,wailua homesteads,22.0669,-159.378,80.74,64,0,5.75,US,Tue Oct 17 14:15:40 2023
81,namdrik,5.5994,168.1028,82.89,70,19,2.98,MH,Tue Oct 17 14:15:40 2023
82,udachny,66.4167,112.4,16.45,92,92,11.45,RU,Tue Oct 17 14:15:40 2023
83,susuman,62.7833,148.1667,-5.75,85,9,1.97,RU,Tue Oct 17 14:15:40 2023
84,fale old settlement,-9.3852,-171.2468,82.13,77,100,10.22,TK,Tue Oct 17 14:15:40 2023
85,pariaman,-0.619,100.12,75.25,89,100,3.65,ID,Tue Oct 17 14:15:41 2023
86,punta arenas,-53.15,-70.9167,51.91,62,75,21.85,CL,Tue Oct 17 14:13:26 2023
87,sitka,57.0531,-135.33,55.29,58,100,23.02,US,Tue Oct 17 14:15:41 2023
88,marka,1.7159,44.7717,79.11,89,29,12.33,SO,Tue Oct 17 14:15:41 2023
89,machico,32.7,-16.7667,75.83,73,40,6.91,PT,Tue Oct 17 14:15:41 2023
90,inari,68.906,27.0288,26.8,97,81,3.22,FI,Tue Oct 17 14:15:41 2023
91,talnakh,69.4865,88.3972,29.21,97,100,9.6,RU,Tue Oct 17 14:15:41 2023
92,kholmsk,47.0511,142.0569,46.44,82,80,14.07,RU,Tue Oct 17 14:15:41 2023
93,sarangani,5.4033,125.4636,81.45,79,0,6.69,PH,Tue Oct 17 14:15:41 2023
94,hithadhoo,-0.6,73.0833,81.41,76,8,14.52,MV,Tue Oct 17 14:15:41 2023
95,puerto natales,-51.7236,-72.4875,55.85,50,75,27.63,CL,Tue Oct 17 14:15:42 2023
96,st. john's,47.5649,-52.7093,45.68,85,75,11.5,CA,Tue Oct 17 14:14:32 2023
97,villa gesell,-37.2639,-56.973,53.69,53,0,17.45,AR,Tue Oct 17 14:15:42 2023
98,saynshand,44.8824,110.1163,40.95,32,52,9.4,MN,Tue Oct 17 14:15:42 2023
99,codrington,-38.2667,141.9667,42.37,82,0,5.82,AU,Tue Oct 17 14:15:42 2023
100,bilibino,68.0546,166.4372,4.96,100,98,2.95,RU,Tue Oct 17 14:15:42 2023
101,hawaiian paradise park,19.5933,-154.9731,81.88,80,40,3.44,US,Tue Oct 17 14:15:42 2023
102,chibougamau,49.9168,-74.3659,53.22,50,0,5.75,CA,Tue Oct 17 14:15:43 2023
103,port mathurin,-19.6833,63.4167,75.43,84,5,10.51,MU,Tue Oct 17 14:15:43 2023
104,petropavlovsk-kamchatsky,53.0452,158.6483,43.45,88,75,5.01,RU,Tue Oct 17 14:15:11 2023
105,uyuni,-20.4597,-66.825,59.31,35,100,6.33,BO,Tue Oct 17 14:15:43 2023
106,bikenibeu village,1.3673,173.1241,80.56,89,75,9.22,KI,Tue Oct 17 14:15:43 2023
107,luang prabang,19.8856,102.1347,69.94,88,99,0.83,LA,Tue Oct 17 14:15:43 2023
108,thompson,55.7435,-97.8558,57.36,62,40,5.75,CA,Tue Oct 17 14:15:43 2023
109,keflavik,64.0049,-22.5624,50.43,93,100,29.93,IS,Tue Oct 17 14:15:44 2023
110,atafu village,-8.5421,-172.5159,83.1,76,100,12.15,TK,Tue Oct 17 14:15:44 2023
111,pemangkat,1.1667,108.9667,80.26,81,100,5.14,ID,Tue Oct 17 14:15:44 2023
112,bathsheba,13.2167,-59.5167,88.41,66,40,14.97,BB,Tue Oct 17 14:15:44 2023
113,wenchang,30.904,118.4887,60.55,64,0,3.38,CN,Tue Oct 17 14:15:44 2023
114,chonchi,-42.6128,-73.8092,60.01,48,26,6.76,CL,Tue Oct 17 14:15:44 2023
115,praia,14.9215,-23.5087,82.94,78,40,13.8,CV,Tue Oct 17 14:15:44 2023
116,sulak,43.2734,47.5146,59.13,49,89,7.29,RU,Tue Oct 17 14:15:44 2023
117,papatowai,-46.5619,169.4708,40.75,78,100,5.08,NZ,Tue Oct 17 14:15:44 2023
118,dem'yanovo,60.3511,47.0842,40.39,97,100,3.47,RU,Tue Oct 17 14:15:45 2023
119,ataq,14.5377,46.8319,71.64,71,0,10.0,YE,Tue Oct 17 14:15:45 2023
120,olonkinbyen,70.9221,-8.7187,31.66,91,97,6.31,SJ,Tue Oct 17 14:15:45 2023
121,ambon,-3.6954,128.1814,81.88,95,40,2.3,ID,Tue Oct 17 14:15:23 2023
122,enewetak,11.3474,162.3373,83.46,75,61,15.1,MH,Tue Oct 17 14:15:45 2023
123,hermanus,-34.4187,19.2345,64.13,79,0,3.62,ZA,Tue Oct 17 14:15:45 2023
124,qaqortoq,60.7167,-46.0333,32.65,55,1,21.07,GL,Tue Oct 17 14:15:45 2023
125,rongelap,11.1635,166.8941,81.66,78,20,12.37,MH,Tue Oct 17 14:15:46 2023
126,magadan,59.5667,150.8,27.82,75,3,11.01,RU,Tue Oct 17 14:15:46 2023
127,coquimbo,-29.9533,-71.3436,60.78,69,60,6.29,CL,Tue Oct 17 14:12:39 2023
128,vilyuchinsk,52.9306,158.4028,44.92,84,97,1.99,RU,Tue Oct 17 14:15:46 2023
129,kumeny,58.1089,49.9161,34.75,95,100,27.89,RU,Tue Oct 17 14:15:46 2023
130,salinopolis,-0.6136,-47.3561,83.8,72,55,12.88,BR,Tue Oct 17 14:15:46 2023
131,shingu,33.7333,135.9833,59.32,75,0,5.37,JP,Tue Oct 17 14:15:46 2023
132,alaghsas,17.0187,8.0168,90.41,14,100,13.8,NE,Tue Oct 17 14:15:46 2023
133,port douglas,-16.4833,145.4667,68.05,94,99,3.76,AU,Tue Oct 17 14:15:46 2023
134,aoulef,26.9667,1.0833,86.58,14,2,9.08,DZ,Tue Oct 17 14:15:46 2023
135,choibalsan,48.0667,114.5,39.72,38,100,9.1,MN,Tue Oct 17 14:15:47 2023
136,queenstown,-31.8976,26.8753,58.46,64,0,2.98,ZA,Tue Oct 17 14:15:47 2023
137,zaranj,30.9667,61.8833,73.36,18,82,8.72,AF,Tue Oct 17 14:14:48 2023
138,waynesboro,38.0685,-78.8895,62.38,56,100,4.61,US,Tue Oct 17 14:15:47 2023
139,ridgecrest,35.6225,-117.6709,83.68,18,0,1.01,US,Tue Oct 17 14:11:29 2023
140,quimili,-27.6333,-62.4167,68.13,71,100,18.63,AR,Tue Oct 17 14:15:47 2023
141,klyuchi,52.2667,79.1667,48.88,59,76,7.47,RU,Tue Oct 17 14:15:47 2023
142,tevriz,57.509,72.4042,47.01,88,6,5.37,RU,Tue Oct 17 14:15:48 2023
143,recreo,-29.2818,-65.061,75.9,36,100,22.5,AR,Tue Oct 17 14:15:48 2023
144,gangtok,27.3333,88.6167,51.33,80,27,5.35,IN,Tue Oct 17 14:15:48 2023
145,san antonio de pale,-1.4014,5.6325,78.01,78,40,5.53,GQ,Tue Oct 17 14:15:48 2023
146,tosontsengel,48.7567,98.2839,29.82,40,100,6.82,MN,Tue Oct 17 14:15:48 2023
147,puerto armuelles,8.2833,-82.8667,82.38,78,64,7.0,PA,Tue Oct 17 14:15:48 2023
148,veraval,20.9,70.3667,80.04,74,0,8.25,IN,Tue Oct 17 14:15:48 2023
149,colonia,50.9333,6.95,49.95,71,0,6.91,DE,Tue Oct 17 14:15:49 2023
150,rodolfo sanchez taboada,31.7167,-116.5667,67.1,76,100,4.0,MX,Tue Oct 17 14:15:49 2023
151,gadzhiyevo,69.2551,33.3362,35.85,70,100,15.3,RU,Tue Oct 17 14:15:49 2023
152,hamilton,39.1834,-84.5333,58.59,69,100,10.36,US,Tue Oct 17 14:14:05 2023
153,gisborne,-38.6533,178.0042,56.5,86,69,1.72,NZ,Tue Oct 17 14:15:49 2023
154,baile herculane,44.8797,22.4125,45.72,59,77,4.25,RO,Tue Oct 17 14:15:50 2023
155,namibe,-15.1961,12.1522,65.66,81,100,9.6,AO,Tue Oct 17 14:15:50 2023
156,jamestown,42.097,-79.2353,50.02,90,100,5.01,US,Tue Oct 17 14:14:56 2023
157,nova sintra,14.8667,-24.7167,76.46,73,0,21.3,CV,Tue Oct 17 14:15:50 2023
158,nova vicosa,-17.8919,-39.3719,80.44,66,9,14.45,BR,Tue Oct 17 14:15:50 2023
159,tateyama,34.9833,139.8667,63.1,72,13,15.26,JP,Tue Oct 17 14:15:51 2023
160,mogok,22.9167,96.5,62.11,85,0,3.33,MM,Tue Oct 17 14:15:51 2023
161,lorengau,-2.0226,147.2712,79.84,80,100,3.02,PG,Tue Oct 17 14:15:51 2023
162,nyrob,60.733,56.7202,46.38,86,100,11.01,RU,Tue Oct 17 14:15:51 2023
163,dihok,36.8695,42.994,72.1,40,54,1.05,IQ,Tue Oct 17 14:15:51 2023
164,maceio,-9.6658,-35.7353,80.04,61,75,9.22,BR,Tue Oct 17 14:13:38 2023
165,severnoye,56.3491,78.3619,46.98,91,3,5.99,RU,Tue Oct 17 14:15:52 2023
166,natal,-5.795,-35.2094,83.05,61,20,20.71,BR,Tue Oct 17 14:15:36 2023
167,newman,37.3138,-121.0208,79.23,50,0,8.01,US,Tue Oct 17 14:15:52 2023
168,meadow lake,34.8014,-106.5436,80.58,27,4,2.66,US,Tue Oct 17 14:15:52 2023
169,antofagasta,-23.65,-70.4,67.28,62,15,7.99,CL,Tue Oct 17 14:15:35 2023
170,laguna,38.421,-121.4238,81.97,46,0,8.05,US,Tue Oct 17 14:15:52 2023
171,avarua,-21.2078,-159.775,73.45,73,49,9.22,CK,Tue Oct 17 14:14:22 2023
172,daru,-9.0763,143.2092,76.75,90,100,9.64,PG,Tue Oct 17 14:15:53 2023
173,turpan,42.9333,89.1667,58.8,24,0,8.86,CN,Tue Oct 17 14:15:53 2023
174,hasaki,35.7333,140.8333,55.8,63,99,8.16,JP,Tue Oct 17 14:15:53 2023
175,greymouth,-42.4667,171.2,44.53,90,48,6.26,NZ,Tue Oct 17 14:15:53 2023
176,arinos,-15.9169,-46.1056,98.56,17,5,6.82,BR,Tue Oct 17 14:15:53 2023
177,ilulissat,69.2167,-51.1,6.82,66,20,3.44,GL,Tue Oct 17 14:15:53 2023
178,dunedin,-45.8742,170.5036,44.29,82,77,2.73,NZ,Tue Oct 17 14:15:53 2023
179,tvoroyri,61.5556,-6.8111,48.07,89,100,18.21,FO,Tue Oct 17 14:15:54 2023
180,longyearbyen,78.2186,15.6401,24.64,58,0,11.5,SJ,Tue Oct 17 14:15:54 2023
181,kurumkan,54.3,110.3,35.13,78,100,5.01,RU,Tue Oct 17 14:15:54 2023
182,alta,69.9689,23.2717,24.19,83,0,5.75,NO,Tue Oct 17 14:15:54 2023
183,fruita,39.1589,-108.729,71.58,27,0,5.75,US,Tue Oct 17 14:15:54 2023
184,saint-philippe,-21.3585,55.7679,76.59,83,100,6.42,RE,Tue Oct 17 14:15:54 2023
185,filadelfia,39.9523,-75.1638,65.08,60,75,10.36,US,Tue Oct 17 14:15:02 2023
186,mejit,10.2753,170.8646,81.86,79,72,11.61,MH,Tue Oct 17 14:15:54 2023
187,nassau,40.7507,-73.5829,63.81,60,100,6.91,US,Tue Oct 17 14:15:55 2023
188,vilyuysk,63.7553,121.6247,28.18,52,100,11.99,RU,Tue Oct 17 14:15:55 2023
189,kodiak,57.79,-152.4072,47.71,81,20,6.91,US,Tue Oct 17 14:15:55 2023
190,mineola,40.7493,-73.6407,63.95,59,75,9.22,US,Tue Oct 17 14:15:55 2023
191,aitape,-3.1374,142.3475,77.14,89,35,4.79,PG,Tue Oct 17 14:15:55 2023
192,falam,22.9167,93.6833,56.23,93,5,2.77,MM,Tue Oct 17 14:15:55 2023
193,utrik,11.2278,169.8474,82.87,77,24,17.09,MH,Tue Oct 17 14:15:55 2023
194,mogadishu,2.0371,45.3438,80.71,81,100,12.39,SO,Tue Oct 17 14:15:55 2023
195,boca suno,-0.7167,-77.1333,90.99,40,16,2.71,EC,Tue Oct 17 14:15:55 2023
196,novoagansk,61.9449,76.6625,44.98,97,83,9.51,RU,Tue Oct 17 14:15:56 2023
197,carnarvon,-24.8667,113.6333,73.02,61,0,21.52,AU,Tue Oct 17 14:15:56 2023
198,whitehorse,60.7161,-135.0538,47.17,82,75,5.75,CA,Tue Oct 17 14:14:22 2023
199,mali,12.079,-12.2982,61.3,92,100,3.4,GN,Tue Oct 17 14:15:56 2023
200,rehoboth,-23.3167,17.0833,73.08,11,0,7.2,NA,Tue Oct 17 14:15:56 2023
201,san patricio,28.017,-97.5169,76.86,29,0,3.83,US,Tue Oct 17 14:15:56 2023
202,al bawiti,28.3492,28.8659,73.33,47,0,5.57,EG,Tue Oct 17 14:15:56 2023
203,vorgashor,67.5833,63.95,34.65,96,100,6.11,RU,Tue Oct 17 14:15:56 2023
204,flying fish cove,-10.4217,105.6791,78.48,88,75,10.36,CX,Tue Oct 17 14:15:56 2023
205,vilhena,-12.7406,-60.1458,87.73,44,47,8.3,BR,Tue Oct 17 14:15:57 2023
206,champerico,14.3,-91.9167,88.34,75,100,5.1,GT,Tue Oct 17 14:15:57 2023
207,sierra grande,-41.606,-65.3557,73.33,13,5,5.53,AR,Tue Oct 17 14:15:57 2023
208,baghlan,35.75,69.0,47.19,40,3,0.92,AF,Tue Oct 17 14:15:57 2023
209,jianguang,28.1938,115.7836,65.3,75,0,1.7,CN,Tue Oct 17 14:15:57 2023
210,mana,5.6592,-53.7767,86.09,65,13,11.43,GF,Tue Oct 17 14:15:57 2023
211,poyarkovo,49.6,128.6833,41.92,59,90,8.52,RU,Tue Oct 17 14:15:57 2023
212,mount pearl,47.5166,-52.7813,44.85,85,75,11.5,CA,Tue Oct 17 14:15:57 2023
213,katsuura,35.1333,140.3,64.96,74,39,4.99,JP,Tue Oct 17 14:15:57 2023
214,kohtla-jarve,59.3986,27.2731,44.37,73,100,9.31,EE,Tue Oct 17 14:15:58 2023
215,solleftea,63.1667,17.2667,35.46,99,100,1.79,SE,Tue Oct 17 14:15:58 2023
216,prince rupert,54.3161,-130.3201,55.09,84,100,34.52,CA,Tue Oct 17 14:15:58 2023
217,zaragoza,41.6561,-0.8773,73.02,66,40,9.22,ES,Tue Oct 17 14:13:30 2023
218,puerto lempira,15.2667,-83.7667,82.54,74,75,10.36,HN,Tue Oct 17 14:15:58 2023
219,lata,40.1629,-8.3327,67.08,93,100,12.35,PT,Tue Oct 17 14:15:58 2023
220,tofol,5.3248,163.0078,82.36,75,83,5.17,FM,Tue Oct 17 14:15:58 2023
221,muli,2.9167,73.5667,82.92,67,100,9.19,MV,Tue Oct 17 14:15:58 2023
222,new norfolk,-42.7826,147.0587,45.72,94,16,3.51,AU,Tue Oct 17 14:15:58 2023
223,cabo san lucas,22.8909,-109.9124,94.6,62,40,5.75,MX,Tue Oct 17 14:15:59 2023
224,paita,-5.0892,-81.1144,66.51,94,46,17.09,PE,Tue Oct 17 14:15:59 2023
225,iaciara,-14.0958,-46.6317,100.15,14,2,7.0,BR,Tue Oct 17 14:15:59 2023
226,posto fiscal rolim de moura,-13.0833,-62.2667,100.8,27,54,4.5,BR,Tue Oct 17 14:15:59 2023
227,oxapampa,-10.5775,-75.4017,66.97,86,98,3.24,PE,Tue Oct 17 14:15:59 2023
228,mahibadhoo,3.7833,72.9667,83.1,68,11,10.87,MV,Tue Oct 17 14:15:59 2023
229,bochum,51.4833,7.2167,48.42,75,8,1.01,DE,Tue Oct 17 14:15:59 2023
230,egilsstadir,65.2653,-14.3948,42.71,70,75,5.75,IS,Tue Oct 17 14:16:00 2023
231,mir bachah kot,34.75,69.119,51.19,78,2,1.81,AF,Tue Oct 17 14:16:00 2023
232,crane,31.3974,-102.3501,78.19,22,0,16.06,US,Tue Oct 17 14:16:00 2023
233,simpang,-1.2667,104.0833,77.86,81,100,3.27,ID,Tue Oct 17 14:16:00 2023
234,minzhu,43.7286,127.3447,42.69,64,100,1.95,CN,Tue Oct 17 14:16:00 2023
235,malabar,-33.9667,151.25,59.65,82,75,11.5,AU,Tue Oct 17 14:16:00 2023
236,urangan,-25.3,152.9,68.67,68,66,21.05,AU,Tue Oct 17 14:13:22 2023
237,aasiaat,68.7098,-52.8699,3.79,85,30,7.31,GL,Tue Oct 17 14:16:00 2023
238,tyukhtet,56.5389,89.3011,45.27,92,100,7.16,RU,Tue Oct 17 14:16:00 2023
239,tolanaro,-25.0319,46.9987,71.53,93,100,8.12,MG,Tue Oct 17 14:16:01 2023
240,lebu,-37.6167,-73.65,57.78,66,0,12.75,CL,Tue Oct 17 14:16:01 2023
241,isafjordur,66.0755,-23.124,41.74,92,100,13.27,IS,Tue Oct 17 14:16:01 2023
242,dhar,22.6,75.3,72.52,61,0,1.83,IN,Tue Oct 17 14:16:01 2023
243,kamianets-podilskyi,48.6667,26.5667,44.44,60,95,3.06,UA,Tue Oct 17 14:16:01 2023
244,newport,51.5877,-2.9984,55.94,72,100,19.82,GB,Tue Oct 17 14:13:09 2023
245,muroto-misakicho,33.2833,134.15,69.3,65,0,5.75,JP,Tue Oct 17 14:16:02 2023
246,thakhek,17.4103,104.8307,70.36,88,100,2.24,LA,Tue Oct 17 14:16:02 2023
247,olimpia,-20.7372,-48.9147,98.62,22,91,6.42,BR,Tue Oct 17 14:16:03 2023
248,lockwood,45.8191,-108.4149,75.42,42,40,4.61,US,Tue Oct 17 14:11:43 2023
249,pierre,44.3683,-100.351,76.86,41,0,21.85,US,Tue Oct 17 14:13:16 2023
250,igrim,63.1906,64.4162,50.02,85,100,8.99,RU,Tue Oct 17 14:16:03 2023
251,kapuskasing,49.4169,-82.4331,53.69,62,0,5.75,CA,Tue Oct 17 14:16:04 2023
252,urumqi,43.801,87.6005,41.95,57,0,2.24,CN,Tue Oct 17 14:16:04 2023
253,nizhneangarsk,55.7833,109.55,37.99,72,100,10.0,RU,Tue Oct 17 14:16:04 2023
254,torghay,49.6339,63.4981,52.5,38,0,8.95,KZ,Tue Oct 17 14:16:04 2023
255,saltillo,25.4167,-101.0,75.16,39,0,6.91,MX,Tue Oct 17 14:11:56 2023
256,calbuco,-41.768,-73.1273,60.01,73,0,12.71,CL,Tue Oct 17 14:16:04 2023
257,guamuchil,25.4667,-108.1,96.67,35,0,8.08,MX,Tue Oct 17 14:16:04 2023
258,lihue,21.9789,-159.3672,81.36,62,0,5.75,US,Tue Oct 17 14:16:05 2023
259,ugoofaaru,5.6667,73.0,82.71,76,98,9.04,MV,Tue Oct 17 14:16:05 2023
260,huinan,42.6225,126.2614,48.2,56,100,7.0,CN,Tue Oct 17 14:16:05 2023
261,sangsong-ni,39.1694,126.8856,46.44,63,100,3.87,KP,Tue Oct 17 14:16:05 2023
262,metahara,8.9,39.9167,78.15,41,100,2.84,ET,Tue Oct 17 14:16:05 2023
263,weligama,5.9667,80.4167,77.04,88,100,2.48,LK,Tue Oct 17 14:16:06 2023
264,panacan,9.2463,118.4082,80.87,84,61,5.91,PH,Tue Oct 17 14:16:06 2023
265,haiku-pauwela,20.9219,-156.3051,83.17,65,20,5.75,US,Tue Oct 17 14:16:06 2023
266,tura,25.5198,90.2201,67.69,90,0,3.49,IN,Tue Oct 17 14:16:06 2023
267,port elizabeth,-33.918,25.5701,63.32,91,0,11.5,ZA,Tue Oct 17 14:16:06 2023
268,tripoli,32.8752,13.1875,79.27,55,0,10.51,LY,Tue Oct 17 14:15:19 2023
269,leiyang,26.4024,112.8591,67.1,67,0,3.85,CN,Tue Oct 17 14:14:46 2023
270,vadso,70.0744,29.7487,34.68,80,0,11.5,NO,Tue Oct 17 14:16:07 2023
271,yarmouth,41.7057,-70.2286,60.03,83,100,10.0,US,Tue Oct 17 14:16:07 2023
272,kuqa,41.7278,82.9364,54.05,35,0,5.37,CN,Tue Oct 17 14:16:07 2023
273,baidoa,3.1138,43.6498,78.19,74,98,13.31,SO,Tue Oct 17 14:16:07 2023
274,sucre,-19.0333,-65.2627,70.27,38,95,24.27,BO,Tue Oct 17 14:16:08 2023
275,brookings,44.3114,-96.7984,68.34,45,0,13.8,US,Tue Oct 17 14:16:08 2023
276,selfoss,63.9331,-20.9971,49.05,95,100,21.32,IS,Tue Oct 17 14:16:08 2023
277,shenjiamen,29.9576,122.298,67.87,62,0,7.74,CN,Tue Oct 17 14:16:08 2023
278,wewak,-3.5534,143.6268,78.8,86,85,2.39,PG,Tue Oct 17 14:16:08 2023
279,thirsk,54.233,-1.3441,50.14,79,75,9.22,GB,Tue Oct 17 14:16:08 2023
280,olinala,17.8333,-98.85,76.3,49,100,4.36,MX,Tue Oct 17 14:16:08 2023
281,greenland,43.0362,-70.8328,59.45,85,100,1.01,US,Tue Oct 17 14:16:09 2023
282,wynyard,-41.0,145.7167,43.07,73,1,3.15,AU,Tue Oct 17 14:16:09 2023
283,evinayong,1.4368,10.5512,69.53,99,100,2.06,GQ,Tue Oct 17 14:16:09 2023
284,la passe,45.5549,-0.8967,73.63,61,92,20.67,FR,Tue Oct 17 14:16:10 2023
285,manta,-0.95,-80.7333,85.78,66,75,6.91,EC,Tue Oct 17 14:14:36 2023
286,constantia,44.1833,28.65,52.7,57,100,8.95,RO,Tue Oct 17 14:15:53 2023
287,bankim,6.083,11.4905,69.75,93,100,1.9,CM,Tue Oct 17 14:16:10 2023
288,guerrero negro,27.9769,-114.0611,77.36,57,5,14.45,MX,Tue Oct 17 14:16:10 2023
289,geraldton,-28.7667,114.6,64.81,77,100,12.66,AU,Tue Oct 17 14:13:00 2023
290,nykobing falster,54.7691,11.8743,49.1,87,13,1.99,DK,Tue Oct 17 14:16:10 2023
291,belabo,4.9333,13.3,71.4,96,100,1.66,CM,Tue Oct 17 14:16:10 2023
292,tsengel,49.4783,100.8894,37.53,39,100,11.63,MN,Tue Oct 17 14:16:11 2023
293,karagandy,49.8019,73.1021,40.95,74,0,7.72,KZ,Tue Oct 17 14:16:11 2023
294,romblon,12.5751,122.2708,82.62,77,14,11.54,PH,Tue Oct 17 14:16:11 2023
295,biltine,14.5333,20.9167,89.38,14,59,9.55,TD,Tue Oct 17 14:16:11 2023
296,isangel,-19.55,169.2667,77.11,83,75,4.61,VU,Tue Oct 17 14:16:11 2023
297,kolwezi,-10.7148,25.4667,65.12,84,100,5.57,CD,Tue Oct 17 14:16:11 2023
298,ust-nera,64.5667,143.2,-2.97,95,86,3.33,RU,Tue Oct 17 14:16:11 2023
299,tsiombe,-25.3,45.4833,72.25,88,100,11.5,MG,Tue Oct 17 14:16:12 2023
300,taos,36.4072,-105.5731,76.55,18,0,8.05,US,Tue Oct 17 14:16:12 2023
301,kavieng,-2.5744,150.7967,81.79,74,80,3.67,PG,Tue Oct 17 14:16:12 2023
302,soe,-9.8607,124.284,63.05,79,7,4.32,ID,Tue Oct 17 14:16:12 2023
303,kone,-21.0595,164.8658,71.15,94,89,4.38,NC,Tue Oct 17 14:16:13 2023
304,fordon,53.1482,18.1704,43.86,77,100,5.75,PL,Tue Oct 17 14:16:13 2023
305,nema,57.5067,50.5011,38.35,84,100,26.73,RU,Tue Oct 17 14:16:13 2023
306,nar'yan-mar,67.6713,53.087,34.11,89,100,8.99,RU,Tue Oct 17 14:16:13 2023
307,thunder bay,48.4001,-89.3168,55.31,62,20,11.5,CA,Tue Oct 17 14:15:51 2023
308,acarau,-2.8856,-40.12,83.07,64,100,19.77,BR,Tue Oct 17 14:16:13 2023
309,cole harbour,44.6724,-63.4751,51.96,77,75,12.66,CA,Tue Oct 17 14:16:14 2023
310,port lincoln,-34.7333,135.8667,56.64,85,0,9.06,AU,Tue Oct 17 14:13:13 2023
311,glace bay,46.1969,-59.957,48.97,93,100,5.75,CA,Tue Oct 17 14:16:14 2023
312,vuktyl,63.8567,57.3094,44.11,81,100,10.0,RU,Tue Oct 17 14:16:14 2023
313,lander,42.833,-108.7307,74.21,21,0,9.22,US,Tue Oct 17 14:16:14 2023
314,sao vicente,-23.9631,-46.3919,86.18,54,100,8.01,BR,Tue Oct 17 14:13:41 2023
315,faxinal,-24.0003,-51.3194,88.21,40,45,5.91,BR,Tue Oct 17 14:16:14 2023
316,tejen,37.3834,60.5054,64.38,38,54,8.75,TM,Tue Oct 17 14:16:15 2023
317,eastham,41.8301,-69.9739,60.01,75,100,5.99,US,Tue Oct 17 14:15:30 2023
318,taoudenni,22.6783,-3.9836,93.43,12,0,6.82,ML,Tue Oct 17 14:16:15 2023
319,hermoso campo,-27.6082,-61.3444,71.67,71,100,16.75,AR,Tue Oct 17 14:16:15 2023
320,hays,30.0502,-98.0336,77.63,34,0,1.99,US,Tue Oct 17 14:16:15 2023
321,weno,7.4515,151.8468,78.75,94,40,3.44,FM,Tue Oct 17 14:16:15 2023
322,ciudad miguel aleman,26.35,-99.1,77.83,29,0,7.07,MX,Tue Oct 17 14:16:15 2023
323,labrador city,52.9463,-66.9114,42.71,70,75,9.22,CA,Tue Oct 17 14:15:12 2023
324,san julian,21.0167,-102.1667,70.47,27,92,7.02,MX,Tue Oct 17 14:16:16 2023
325,kailua-kona,19.6406,-155.9956,85.28,68,0,5.75,US,Tue Oct 17 14:16:16 2023
326,zakynthos,37.7914,20.8953,73.63,78,75,13.8,GR,Tue Oct 17 14:16:16 2023
327,tshela,-4.9833,12.9333,77.11,78,100,3.67,CD,Tue Oct 17 14:16:16 2023
328,la'ie,21.6477,-157.9253,83.1,82,0,1.99,US,Tue Oct 17 14:16:16 2023
329,zouerate,22.7187,-12.4521,92.05,17,66,3.56,MR,Tue Oct 17 14:16:16 2023
330,bamboo flat,11.7,92.7167,81.03,79,24,3.71,IN,Tue Oct 17 14:16:17 2023
331,castillos,-34.1667,-53.8333,57.94,62,15,15.95,UY,Tue Oct 17 14:16:17 2023
332,proletarsk,46.7031,41.7192,48.15,60,68,6.22,RU,Tue Oct 17 14:16:17 2023
333,narrabri,-30.3167,149.7833,51.53,71,0,3.0,AU,Tue Oct 17 14:16:17 2023
334,pizarro,4.9533,-77.366,84.54,69,75,6.67,CO,Tue Oct 17 14:16:17 2023
335,piotrkow trybunalski,51.4055,19.7032,44.19,65,11,4.81,PL,Tue Oct 17 14:16:17 2023
336,kapoeta,4.7717,33.5903,76.68,70,53,2.59,SS,Tue Oct 17 14:16:17 2023
337,anna regina,7.2644,-58.5077,86.77,64,16,9.35,GY,Tue Oct 17 14:16:17 2023
338,bentong town,3.5167,101.9,78.04,91,93,0.98,MY,Tue Oct 17 14:16:18 2023
339,barcelos,41.5388,-8.6151,68.14,95,100,17.07,PT,Tue Oct 17 14:16:18 2023
340,palikir - national government center,6.9248,158.1611,75.94,94,75,0.0,FM,Tue Oct 17 14:16:18 2023
341,bahir dar,11.5936,37.3908,62.85,87,99,2.82,ET,Tue Oct 17 14:16:18 2023
342,dudinka,69.4058,86.1778,31.68,98,100,5.99,RU,Tue Oct 17 14:16:18 2023
343,clarkston heights-vineland,46.3874,-117.083,65.07,53,0,3.44,US,Tue Oct 17 14:16:18 2023
344,orichi,58.4036,49.0572,40.75,95,100,21.21,RU,Tue Oct 17 14:16:18 2023
345,howard springs,-12.497,131.047,76.91,69,100,1.28,AU,Tue Oct 17 14:16:18 2023
346,minas de marcona,-15.2119,-75.1103,67.28,65,38,10.8,PE,Tue Oct 17 14:16:18 2023
347,karratha,-20.7377,116.8463,81.46,26,0,8.3,AU,Tue Oct 17 14:16:19 2023
348,migori,-1.0634,34.4731,66.97,86,97,3.27,KE,Tue Oct 17 14:16:19 2023
349,papao,-17.75,-149.55,82.08,81,71,17.69,PF,Tue Oct 17 14:16:19 2023
350,celestun,20.8667,-90.4,81.18,53,51,12.97,MX,Tue Oct 17 14:16:19 2023
351,makubetsu,45.3714,141.8211,52.83,69,100,8.01,JP,Tue Oct 17 14:16:19 2023
352,brainerd,46.358,-94.2008,62.85,53,0,8.05,US,Tue Oct 17 14:16:19 2023
353,louisville,38.2542,-85.7594,57.22,67,100,1.99,US,Tue Oct 17 14:12:04 2023
354,zarautz,43.2844,-2.1699,82.35,57,84,11.86,ES,Tue Oct 17 14:16:20 2023
355,christchurch,-43.5333,172.6333,44.94,89,38,6.91,NZ,Tue Oct 17 14:14:07 2023
356,santiago de cao,-7.9589,-79.2392,69.93,78,46,11.5,PE,Tue Oct 17 14:16:20 2023
357,bor,56.3567,44.0669,37.87,93,100,16.6,RU,Tue Oct 17 14:16:20 2023
358,agbabu,6.5886,4.8343,75.2,97,48,1.74,NG,Tue Oct 17 14:16:20 2023
359,alofi,-19.0595,-169.9187,75.09,64,100,20.71,NU,Tue Oct 17 14:16:20 2023
360,flin flon,54.7682,-101.865,58.84,55,75,0.0,CA,Tue Oct 17 14:16:20 2023
361,tinogasta,-28.0632,-67.5649,77.49,19,81,12.46,AR,Tue Oct 17 14:16:20 2023
362,khorixas,-20.3667,14.9667,67.53,48,5,8.39,NA,Tue Oct 17 14:16:21 2023
363,rio grande,-32.035,-52.0986,71.71,67,100,20.78,BR,Tue Oct 17 14:16:21 2023
364,el galpon,-25.3807,-64.6526,71.92,63,100,10.69,AR,Tue Oct 17 14:16:21 2023
365,tondano,1.3038,124.9112,67.51,90,45,0.94,ID,Tue Oct 17 14:16:21 2023
366,apolinario saravia,-24.4328,-63.9954,75.43,59,100,15.99,AR,Tue Oct 17 14:16:21 2023
367,saint-francois,46.4154,3.9054,62.65,82,0,4.61,FR,Tue Oct 17 14:16:21 2023
368,tromso,69.6496,18.957,32.02,74,20,3.44,NO,Tue Oct 17 14:16:22 2023
369,lompoc,34.6391,-120.4579,88.84,66,0,15.01,US,Tue Oct 17 14:14:10 2023
370,kencong,-8.2833,113.3667,74.23,94,90,1.21,ID,Tue Oct 17 14:16:22 2023
371,oranjemund,-28.55,16.4333,69.24,59,0,11.77,NA,Tue Oct 17 14:16:22 2023
372,morden,49.1919,-98.1014,67.08,55,100,10.36,CA,Tue Oct 17 14:16:22 2023
373,sumenep,-7.0167,113.8667,80.49,79,100,13.62,ID,Tue Oct 17 14:16:22 2023
374,bonthe,7.5264,-12.505,77.85,85,100,5.17,SL,Tue Oct 17 14:16:22 2023
375,arraial do cabo,-22.9661,-42.0278,78.66,78,0,10.36,BR,Tue Oct 17 14:16:23 2023
376,ananindeua,-1.3656,-48.3722,84.11,65,75,17.27,BR,Tue Oct 17 14:16:02 2023
377,doka,13.5167,35.7667,75.76,71,100,2.55,SD,Tue Oct 17 14:16:23 2023
378,baker city,44.7749,-117.8344,61.59,56,89,3.78,US,Tue Oct 17 14:15:44 2023
379,suluru,13.7,80.0167,78.85,77,100,1.79,IN,Tue Oct 17 14:16:23 2023
380,linkou,45.3,130.2833,42.66,47,99,4.85,CN,Tue Oct 17 14:16:23 2023
381,labuan,5.2767,115.2417,82.76,94,20,1.14,MY,Tue Oct 17 14:16:23 2023
382,neryungri,56.6709,124.6491,28.24,97,100,0.89,RU,Tue Oct 17 14:16:23 2023
383,chardara,41.2547,67.9692,60.49,32,100,2.59,KZ,Tue Oct 17 14:16:23 2023
384,mananara,-16.1667,49.7667,72.9,92,23,3.94,MG,Tue Oct 17 14:16:24 2023
385,lagoa,39.05,-27.9833,68.32,89,13,23.06,PT,Tue Oct 17 14:16:24 2023
386,kingston,17.997,-76.7936,90.25,71,68,8.01,JM,Tue Oct 17 14:11:39 2023
387,warrnambool,-38.3833,142.4833,44.38,86,0,8.39,AU,Tue Oct 17 14:16:24 2023
388,astorga,-23.2325,-51.6656,92.35,34,100,3.27,BR,Tue Oct 17 14:16:24 2023
389,yarkovo,57.4028,67.0786,51.62,65,0,11.36,RU,Tue Oct 17 14:16:24 2023
390,lake city,30.1897,-82.6393,70.81,42,0,8.05,US,Tue Oct 17 14:16:24 2023
391,tamandare,-8.7597,-35.1047,79.39,63,100,11.36,BR,Tue Oct 17 14:16:24 2023
392,merizo village,13.2658,144.6691,77.38,91,100,8.84,GU,Tue Oct 17 14:16:25 2023
393,gizo,-8.103,156.8419,81.32,80,91,3.62,SB,Tue Oct 17 14:16:25 2023
394,kapa'a,22.0752,-159.319,82.09,62,0,5.75,US,Tue Oct 17 14:16:25 2023
395,yesilhisar,38.3497,35.0867,57.27,58,87,2.39,TR,Tue Oct 17 14:16:25 2023
396,reggane,26.7158,0.1714,86.0,14,1,5.19,DZ,Tue Oct 17 14:16:25 2023
397,willmar,45.1219,-95.0433,64.87,42,0,11.5,US,Tue Oct 17 14:13:25 2023
398,vlore,40.4667,19.4897,64.18,89,98,11.39,AL,Tue Oct 17 14:16:25 2023
399,bousso,10.4795,16.7117,84.18,48,22,2.26,TD,Tue Oct 17 14:16:26 2023
400,choiseul,48.0588,5.5668,47.91,66,100,4.9,FR,Tue Oct 17 14:16:26 2023
401,lawas,13.764,121.0566,78.98,92,54,7.45,PH,Tue Oct 17 14:16:26 2023
402,iranshahr,27.2025,60.6848,84.54,37,0,6.91,IR,Tue Oct 17 14:16:26 2023
403,cuamba,-14.8031,36.5372,74.21,69,100,6.62,MZ,Tue Oct 17 14:16:26 2023
404,kourou,5.1552,-52.6478,87.85,61,14,11.07,GF,Tue Oct 17 14:16:26 2023
405,south lake tahoe,38.9332,-119.9844,69.31,36,0,4.61,US,Tue Oct 17 14:16:26 2023
406,yokadouma,3.5167,15.05,71.11,98,99,1.95,CM,Tue Oct 17 14:16:27 2023
407,igarka,67.4667,86.5833,32.52,87,100,13.06,RU,Tue Oct 17 14:16:27 2023
408,yekaterinovka,52.0508,44.3451,37.6,80,39,15.86,RU,Tue Oct 17 14:16:27 2023
409,adrar,20.5022,-10.0711,88.09,10,14,6.6,MR,Tue Oct 17 14:16:27 2023
410,fuerte olimpo,-21.0415,-57.8738,111.7,13,43,9.6,PY,Tue Oct 17 14:16:27 2023
411,angaur state,6.906,134.13,82.29,75,30,3.0,PW,Tue Oct 17 14:16:27 2023
412,suwayr,30.1171,40.3893,76.14,32,0,6.11,SA,Tue Oct 17 14:16:27 2023
413,nikolayevsk-on-amure,53.1406,140.73,39.11,93,99,3.33,RU,Tue Oct 17 14:16:27 2023
414,murmashi,68.8154,32.8115,32.41,100,40,7.0,RU,Tue Oct 17 14:16:27 2023
415,jining,35.405,116.5814,68.22,39,100,9.78,CN,Tue Oct 17 14:16:28 2023
416,ghadamis,30.1337,9.5007,82.35,14,60,9.24,LY,Tue Oct 17 14:16:28 2023
417,fisterra,42.9049,-9.2629,69.03,95,100,26.42,ES,Tue Oct 17 14:16:28 2023
418,usurbil,43.2715,-2.0481,82.08,54,79,12.95,ES,Tue Oct 17 14:16:28 2023
419,ha'il,27.5219,41.6907,77.02,29,0,9.22,SA,Tue Oct 17 14:16:28 2023
420,mont-dore,-22.2833,166.5833,71.58,94,100,3.98,NC,Tue Oct 17 14:16:28 2023
421,naze,28.3667,129.4833,63.52,69,0,5.26,JP,Tue Oct 17 14:16:28 2023
422,erenhot,43.6475,111.9767,43.05,39,0,9.04,CN,Tue Oct 17 14:16:29 2023
423,sandnessjoen,66.0217,12.6316,39.42,70,20,10.36,NO,Tue Oct 17 14:16:29 2023
424,serdar,38.9764,56.2757,65.01,78,9,15.5,TM,Tue Oct 17 14:16:29 2023
425,as sulayyil,20.4607,45.5779,82.65,15,0,5.99,SA,Tue Oct 17 14:16:29 2023
426,manado,1.487,124.8455,76.89,84,17,2.39,ID,Tue Oct 17 14:16:29 2023
427,kyren,51.6828,102.1408,42.94,51,100,3.0,RU,Tue Oct 17 14:16:29 2023
428,yuzhno-kurilsk,44.0306,145.8556,51.37,75,92,29.82,RU,Tue Oct 17 14:16:29 2023
429,tomohon,1.3346,124.8392,66.81,89,34,1.72,ID,Tue Oct 17 14:16:29 2023
430,aykhal,66.0,111.5,18.07,98,96,5.01,RU,Tue Oct 17 14:16:30 2023
431,oktyabr'skoye,43.0645,44.7417,44.69,87,100,4.47,RU,Tue Oct 17 14:16:30 2023
432,ketchikan,55.3422,-131.6461,51.78,87,100,17.27,US,Tue Oct 17 14:16:30 2023
433,alto araguaia,-17.3147,-53.2153,97.92,19,41,6.91,BR,Tue Oct 17 14:16:30 2023
434,berezovo,63.9381,65.0419,43.97,85,100,11.99,RU,Tue Oct 17 14:16:30 2023
435,hami,42.8,93.45,45.66,54,0,3.89,CN,Tue Oct 17 14:12:14 2023
436,ramshir,30.8946,49.4092,73.15,25,0,9.91,IR,Tue Oct 17 14:16:31 2023
437,moratuwa,6.773,79.8816,77.02,86,100,2.21,LK,Tue Oct 17 14:16:31 2023
438,fetsund,59.929,11.1625,45.68,77,0,3.38,NO,Tue Oct 17 14:16:31 2023
439,darwin,-12.4611,130.8418,76.98,88,100,3.44,AU,Tue Oct 17 14:16:31 2023
440,huaiyuan chengguanzhen,32.9589,117.1657,63.01,64,13,6.49,CN,Tue Oct 17 14:16:31 2023
441,grand falls-windsor,48.9332,-55.6649,42.51,82,100,1.01,CA,Tue Oct 17 14:16:31 2023
442,marsabit,2.3284,37.9899,71.91,64,59,8.52,KE,Tue Oct 17 14:16:31 2023
443,zag,46.9441,99.165,28.13,35,89,5.26,MN,Tue Oct 17 14:16:31 2023
444,nanyuki,0.0167,37.0728,60.85,87,100,3.04,KE,Tue Oct 17 14:16:32 2023
445,krosno,49.6887,21.7706,42.24,98,11,3.65,PL,Tue Oct 17 14:16:32 2023
446,secunda,-26.55,29.1667,51.33,90,74,4.0,ZA,Tue Oct 17 14:16:32 2023
447,chittarkonda,18.1167,82.0833,68.94,78,49,2.71,IN,Tue Oct 17 14:16:32 2023
448,sisimiut,66.9395,-53.6735,21.65,83,85,7.45,GL,Tue Oct 17 14:16:32 2023
449,mount gambier,-37.8333,140.7667,41.77,90,0,4.99,AU,Tue Oct 17 14:16:32 2023
450,keciborlu,37.9425,30.3022,61.16,63,75,2.3,TR,Tue Oct 17 14:16:32 2023
451,nagqu,31.5,92.0,27.63,84,100,10.25,CN,Tue Oct 17 14:16:32 2023
452,cabanillas del campo,40.6338,-3.2294,68.9,69,2,22.39,ES,Tue Oct 17 14:16:33 2023
453,concepcion,-36.827,-73.0498,69.6,46,0,4.61,CL,Tue Oct 17 14:16:33 2023
454,acapulco de juarez,16.8634,-99.8901,89.42,43,100,3.44,MX,Tue Oct 17 14:12:19 2023
455,topki,55.2769,85.6163,45.48,88,100,7.83,RU,Tue Oct 17 14:16:33 2023
456,antsohihy,-14.8796,47.9875,80.04,77,48,4.36,MG,Tue Oct 17 14:16:33 2023
457,island harbour,50.724,-1.2758,55.92,77,100,10.0,GB,Tue Oct 17 14:16:33 2023
458,kerikeri,-35.2268,173.9474,63.91,94,100,3.0,NZ,Tue Oct 17 14:16:33 2023
459,kyzyl-mazhalyk,51.1333,90.6,40.91,49,58,1.99,RU,Tue Oct 17 14:16:33 2023
460,nadym,65.5333,72.5167,41.65,96,100,10.98,RU,Tue Oct 17 14:16:34 2023
461,zungeru,9.8128,6.1558,84.18,75,77,3.15,NG,Tue Oct 17 14:16:34 2023
462,murzuq,25.9155,13.9184,76.1,16,0,4.9,LY,Tue Oct 17 14:16:34 2023
463,la gi,10.6667,107.7833,78.67,88,100,6.89,VN,Tue Oct 17 14:16:34 2023
464,khandyga,62.6667,135.6,17.08,82,100,2.21,RU,Tue Oct 17 14:16:34 2023
465,khovd,48.0056,91.6419,37.98,34,13,1.28,MN,Tue Oct 17 14:16:34 2023
466,saint-joseph,-21.3667,55.6167,75.58,87,100,3.65,RE,Tue Oct 17 14:16:35 2023
467,qamdo,31.1667,97.2333,31.23,59,47,4.97,CN,Tue Oct 17 14:16:35 2023
468,morant bay,17.8815,-76.4093,91.02,72,93,6.02,JM,Tue Oct 17 14:16:35 2023
469,yaren,-0.5472,166.916,82.2,79,100,22.53,NR,Tue Oct 17 14:16:35 2023
470,belmonte,-15.8631,-38.8828,79.34,63,3,8.39,BR,Tue Oct 17 14:16:35 2023
471,san francisco de la paz,14.9,-86.2,87.51,78,100,4.12,HN,Tue Oct 17 14:16:35 2023
472,kavalerovo,44.2661,135.0572,41.54,74,100,5.01,RU,Tue Oct 17 14:16:36 2023
473,bukittinggi,-0.3091,100.3706,65.73,97,100,1.68,ID,Tue Oct 17 14:16:36 2023
474,caska,41.6506,21.6622,46.92,93,100,2.28,MK,Tue Oct 17 14:16:36 2023
475,sena madureira,-9.0656,-68.6569,99.52,31,84,1.81,BR,Tue Oct 17 14:16:36 2023
476,tinajo,29.0788,-13.7081,77.88,78,20,0.0,ES,Tue Oct 17 14:16:36 2023
477,souillac,-20.5167,57.5167,75.58,88,75,3.44,MU,Tue Oct 17 14:16:37 2023
478,rabo de peixe,37.8,-25.5833,69.31,99,75,18.41,PT,Tue Oct 17 14:16:37 2023
479,lincoln city,44.9582,-124.0179,62.96,88,100,7.0,US,Tue Oct 17 14:16:37 2023
480,lhasa,29.65,91.1,40.39,63,4,5.26,CN,Tue Oct 17 14:16:37 2023
481,necochea,-38.5473,-58.7368,55.33,47,0,8.03,AR,Tue Oct 17 14:16:37 2023
482,oamaru,-45.0784,170.9801,41.38,93,20,4.7,NZ,Tue Oct 17 14:16:38 2023
483,luderitz,-26.6481,15.1594,67.59,64,1,9.51,NA,Tue Oct 17 14:16:38 2023
484,mar del plata,-38.0023,-57.5575,59.02,44,0,14.97,AR,Tue Oct 17 14:16:38 2023
485,cueto,20.6439,-75.9356,90.12,60,82,5.48,CU,Tue Oct 17 14:16:38 2023
486,tuma,55.148,40.5537,37.69,96,100,11.79,RU,Tue Oct 17 14:16:38 2023
487,yamba,-5.9,22.3,75.56,77,15,2.35,CD,Tue Oct 17 14:16:38 2023
488,nelson bay,-32.7167,152.15,63.0,92,93,8.01,AU,Tue Oct 17 14:16:38 2023
489,al qitena,14.8648,32.3668,91.63,16,39,9.35,SD,Tue Oct 17 14:16:39 2023
490,nago,26.5881,127.9761,69.46,65,0,5.21,JP,Tue Oct 17 14:16:39 2023
491,pisco,-13.7,-76.2167,69.85,83,20,12.66,PE,Tue Oct 17 14:16:39 2023
492,paka,4.6374,103.4368,78.73,100,90,0.0,MY,Tue Oct 17 14:16:39 2023
493,touros,-5.1989,-35.4608,79.39,76,100,25.5,BR,Tue Oct 17 14:15:46 2023
494,basoko,1.2391,23.616,79.66,69,99,1.16,CD,Tue Oct 17 14:16:39 2023
495,bhadra,29.1167,75.1667,73.98,58,0,5.84,IN,Tue Oct 17 14:16:39 2023
496,taulaga,-11.0553,-171.0883,82.24,75,40,14.45,AS,Tue Oct 17 14:16:40 2023
497,remire-montjoly,4.9167,-52.2667,87.84,70,75,12.66,GF,Tue Oct 17 14:16:40 2023
498,that phanom,16.9364,104.7104,71.62,87,100,1.81,TH,Tue Oct 17 14:16:40 2023
499,panjab,34.388,67.0233,42.66,39,64,3.0,AF,Tue Oct 17 14:16:40 2023
500,copiapo,-27.3667,-70.3333,60.49,30,94,10.18,CL,Tue Oct 17 14:16:30 2023
501,gwanda,-20.9333,29.0,64.78,73,15,15.88,ZW,Tue Oct 17 14:16:40 2023
502,broome,42.2506,-75.833,58.01,79,100,4.61,US,Tue Oct 17 14:16:40 2023
503,gamba,-2.65,10.0,76.75,83,53,5.48,GA,Tue Oct 17 14:16:40 2023
504,mugia,43.1041,-9.2179,69.17,96,100,26.49,ES,Tue Oct 17 14:16:40 2023
505,bjelovar,45.8986,16.8489,46.33,58,100,2.42,HR,Tue Oct 17 14:16:41 2023
506,polyarnyy,69.1989,33.4478,36.0,71,100,15.1,RU,Tue Oct 17 14:16:41 2023
507,stephenville,32.2207,-98.2023,77.16,28,0,5.75,US,Tue Oct 17 14:15:35 2023
508,neiafu,-18.65,-173.9833,77.68,78,40,12.66,TO,Tue Oct 17 14:16:41 2023
509,katsuren-haebaru,26.3369,127.8719,73.42,68,1,6.98,JP,Tue Oct 17 14:16:41 2023
510,la ronge,55.1001,-105.2842,61.02,51,75,6.91,CA,Tue Oct 17 14:16:41 2023
511,valera,9.3178,-70.6036,84.34,72,96,1.77,VE,Tue Oct 17 14:16:41 2023
512,xiaoweizhai,26.1903,107.5125,60.49,83,2,2.55,CN,Tue Oct 17 14:16:41 2023
513,lauro de freitas,-12.8944,-38.3272,80.62,65,40,11.5,BR,Tue Oct 17 14:16:41 2023
514,la carlota,10.4233,122.9208,77.05,84,100,3.78,PH,Tue Oct 17 14:16:42 2023
515,sokhumi,43.0033,41.0153,50.74,70,38,5.28,GE,Tue Oct 17 14:16:42 2023
516,cascais,38.6979,-9.4215,67.96,96,75,13.0,PT,Tue Oct 17 14:16:42 2023
517,mabaruma,8.2,-59.7833,88.68,56,99,7.02,GY,Tue Oct 17 14:16:42 2023
518,bocaiuva,-17.1078,-43.815,94.26,17,3,9.35,BR,Tue Oct 17 14:13:26 2023
519,mandan,46.8267,-100.8896,71.37,52,0,5.75,US,Tue Oct 17 14:13:19 2023
520,prado,-17.3411,-39.2208,78.98,69,0,11.97,BR,Tue Oct 17 14:16:42 2023
521,orland,39.7474,-122.1964,84.43,41,5,1.01,US,Tue Oct 17 14:16:43 2023
522,xai-xai,-25.0519,33.6442,68.29,82,47,9.91,MZ,Tue Oct 17 14:16:43 2023
523,goba,7.0167,39.9833,52.38,87,100,4.63,ET,Tue Oct 17 14:16:43 2023
524,arkalyk,50.2486,66.9114,51.01,45,0,9.04,KZ,Tue Oct 17 14:16:43 2023
525,viedma,-40.8135,-62.9967,73.81,19,0,11.03,AR,Tue Oct 17 14:16:43 2023
526,nogliki,51.8333,143.1667,48.34,84,98,7.0,RU,Tue Oct 17 14:16:43 2023
527,santa ana,33.7456,-117.8678,91.96,63,20,10.36,US,Tue Oct 17 14:08:08 2023
528,angra do heroismo,38.65,-27.2167,72.21,82,20,3.0,PT,Tue Oct 17 14:16:43 2023
529,bacalar,18.6667,-88.3833,86.11,51,40,5.75,MX,Tue Oct 17 14:16:43 2023
530,nikologory,56.1413,41.9922,36.39,94,100,14.92,RU,Tue Oct 17 14:16:44 2023
531,pahrump,36.2083,-115.9839,83.5,16,77,1.99,US,Tue Oct 17 14:13:19 2023
532,arrifes,37.7667,-25.7,68.25,73,75,18.41,PT,Tue Oct 17 14:16:44 2023
533,yeniseysk,58.4497,92.1703,42.94,70,99,5.01,RU,Tue Oct 17 14:16:44 2023
534,kitimat,54.0524,-128.6534,50.38,63,100,1.01,CA,Tue Oct 17 14:16:44 2023
535,les anglais,18.3054,-74.2197,84.96,75,21,5.26,HT,Tue Oct 17 14:16:44 2023
536,tindouf,27.6711,-8.1474,86.45,17,40,4.61,DZ,Tue Oct 17 14:16:44 2023
537,cambria,35.5641,-121.0808,83.62,52,0,4.97,US,Tue Oct 17 14:16:44 2023
538,mahajanga,-15.7167,46.3167,79.83,82,54,10.25,MG,Tue Oct 17 14:16:45 2023
539,tarko-sale,64.9225,77.785,39.99,88,100,11.99,RU,Tue Oct 17 14:15:54 2023
540,tukrah,32.5341,20.5791,73.8,71,0,4.32,LY,Tue Oct 17 14:16:45 2023
541,amarpatan,24.3167,80.9833,71.04,76,0,1.54,IN,Tue Oct 17 14:16:45 2023
542,san carlos de bariloche,-41.1456,-71.3082,69.55,12,0,3.44,AR,Tue Oct 17 14:16:45 2023
543,okhotsk,59.3833,143.3,17.13,71,24,12.59,RU,Tue Oct 17 14:16:45 2023
